[{"version":"1","alive":true,"tagId":"26660","success":true,"timestamp":1650204725.182,"data":{"tagData":{"gyro":{"x":8.9375,"y":-9.8125,"z":-11.375},"magnetic":{"x":2.75,"y":18.75,"z":-45.0625}},"anchorData":[],"coordinates":{"x":3086,"y":5767,"z":1218},"acceleration":{"x":-32,"y":39,"z":1174},"orientation":{"yaw":5.848,"roll":-0.029,"pitch":-0.017},"metrics":{"latency":80.9,"rates":{"update":6.107,"success":4.952}},"zones":[]}}]
[{"version":"1","alive":true,"tagId":"26651","success":true,"timestamp":1650204725.263,"data":{"tagData":{"gyro":{"x":-0.0625,"y":0,"z":0.125},"magnetic":{"x":4.375,"y":23.1875,"z":-45.1875}},"anchorData":[],"coordinates":{"x":3059,"y":4954,"z":783},"acceleration":{"x":69,"y":5,"z":957},"orientation":{"yaw":5.949,"roll":0.07,"pitch":-0.005},"metrics":{"latency":64.9,"rates":{"update":6.194,"success":6.194}},"zones":[]}}]
[{"version":"1","tagId":"26660","alive":true,"success":false,"errorCode":"ERROR 0x0A: Not enough anchors available for positioning","timestamp":1650204725.43}]
[{"version":"1","alive":true,"tagId":"26651","success":true,"timestamp":1650204725.43,"data":{"tagData":{"gyro":{"x":-0.1875,"y":-0.0625,"z":-0.1875},"magnetic":{"x":4.375,"y":22.75,"z":-45.1875}},"anchorData":[],"coordinates":{"x":3053,"y":4955,"z":805},"acceleration":{"x":69,"y":3,"z":958},"orientation":{"yaw":5.949,"roll":0.07,"pitch":-0.005},"metrics":{"latency":70.1,"rates":{"update":6.154,"success":6.154}},"zones":[]}}]
[{"version":"1","alive":true,"tagId":"26660","success":true,"timestamp":1650204725.5,"data":{"tagData":{"gyro":{"x":14.875,"y":17.75,"z":5.875},"magnetic":{"x":1.25,"y":18.0625,"z":-45.0625}},"anchorData":[],"coordinates":{"x":3117,"y":5776,"z":1194},"acceleration":{"x":0,"y":16,"z":1045},"orientation":{"yaw":5.822,"roll":-0.027,"pitch":-0.031},"metrics":{"latency":79.6,"rates":{"update":6.119,"success":4.686}},"zones":[]}}]
[{"version":"1","alive":true,"tagId":"26651","success":true,"timestamp":1650204725.58,"data":{"tagData":{"gyro":{"x":0.125,"y":0,"z":0},"magnetic":{"x":4.75,"y":23.1875,"z":-45.5625}},"anchorData":[],"coordinates":{"x":3051,"y":4956,"z":804},"acceleration":{"x":68,"y":7,"z":958},"orientation":{"yaw":5.949,"roll":0.07,"pitch":-0.005},"metrics":{"latency":72.7,"rates":{"update":6.193,"success":6.193}},"zones":[]}}]
[{"version":"1","tagId":"26660","alive":true,"success":false,"errorCode":"ERROR 0x0A: Not enough anchors available for positioning","timestamp":1650204725.771}]
[{"version":"1","alive":true,"tagId":"26651","success":true,"timestamp":1650204725.781,"data":{"tagData":{"gyro":{"x":0.125,"y":-0.0625,"z":-0.0625},"magnetic":{"x":4.375,"y":22.75,"z":-44.75}},"anchorData":[],"coordinates":{"x":3051,"y":4957,"z":814},"acceleration":{"x":69,"y":5,"z":959},"orientation":{"yaw":5.949,"roll":0.07,"pitch":-0.005},"metrics":{"latency":58.3,"rates":{"update":6.097,"success":6.097}},"zones":[]}}]
[{"version":"1","alive":true,"tagId":"26660","success":true,"timestamp":1650204725.849,"data":{"tagData":{"gyro":{"x":14.8125,"y":-11.8125,"z":5.4375},"magnetic":{"x":1.6875,"y":16.5625,"z":-46.75}},"anchorData":[],"coordinates":{"x":3112,"y":5785,"z":1203},"acceleration":{"x":79,"y":101,"z":727},"orientation":{"yaw":5.79,"roll":0.001,"pitch":-0.068},"metrics":{"latency":84,"rates":{"update":5.996,"success":4.398}},"zones":[]}}]
[{"version":"1","alive":true,"tagId":"26651","success":true,"timestamp":1650204725.934,"data":{"tagData":{"gyro":{"x":0.0625,"y":0,"z":0},"magnetic":{"x":4.75,"y":22.375,"z":-44.75}},"anchorData":[],"coordinates":{"x":3048,"y":4957,"z":825},"acceleration":{"x":70,"y":5,"z":957},"orientation":{"yaw":5.949,"roll":0.07,"pitch":-0.005},"metrics":{"latency":63,"rates":{"update":6.121,"success":6.121}},"zones":[]}}]
[{"version":"1","alive":true,"tagId":"26660","success":true,"timestamp":1650204726.001,"data":{"tagData":{"gyro":{"x":-2.0625,"y":-12.5625,"z":7.4375},"magnetic":{"x":2,"y":14.6875,"z":-46.75}},"anchorData":[],"coordinates":{"x":3095,"y":5793,"z":1217},"acceleration":{"x":52,"y":137,"z":907},"orientation":{"yaw":5.768,"roll":0.021,"pitch":-0.093},"metrics":{"latency":86.8,"rates":{"update":6.04,"success":4.543}},"zones":[]}}]
[{"version":"1","alive":true,"tagId":"26651","success":true,"timestamp":1650204726.092,"data":{"tagData":{"gyro":{"x":-0.0625,"y":-0.0625,"z":0},"magnetic":{"x":4.375,"y":23.1875,"z":-46.5}},"anchorData":[],"coordinates":{"x":3050,"y":4957,"z":824},"acceleration":{"x":68,"y":4,"z":955},"orientation":{"yaw":5.949,"roll":0.07,"pitch":-0.005},"metrics":{"latency":63.9,"rates":{"update":6.135,"success":6.135}},"zones":[]}}]
[{"version":"1","alive":true,"tagId":"26660","success":true,"timestamp":1650204726.162,"data":{"tagData":{"gyro":{"x":8.25,"y":4.25,"z":8.875},"magnetic":{"x":0.5,"y":14.25,"z":-47.1875}},"anchorData":[],"coordinates":{"x":3084,"y":5804,"z":1234},"acceleration":{"x":43,"y":220,"z":913},"orientation":{"yaw":5.745,"roll":0.033,"pitch":-0.115},"metrics":{"latency":81.5,"rates":{"update":6.075,"success":4.68}},"zones":[]}}]
[{"version":"1","alive":true,"tagId":"26651","success":true,"timestamp":1650204726.243,"data":{"tagData":{"gyro":{"x":-0.4375,"y":0.1875,"z":-0.125},"magnetic":{"x":4.375,"y":22.75,"z":-45.5625}},"anchorData":[],"coordinates":{"x":3053,"y":4959,"z":820},"acceleration":{"x":68,"y":6,"z":959},"orientation":{"yaw":5.949,"roll":0.07,"pitch":-0.005},"metrics":{"latency":70.6,"rates":{"update":6.155,"success":6.155}},"zones":[]}}]
[{"version":"1","alive":true,"tagId":"26660","success":true,"timestamp":1650204726.318,"data":{"tagData":{"gyro":{"x":2.5625,"y":-1.5625,"z":-2.125},"magnetic":{"x":2,"y":13.1875,"z":-47.5625}},"anchorData":[],"coordinates":{"x":3056,"y":5820,"z":1281},"acceleration":{"x":26,"y":210,"z":928},"orientation":{"yaw":5.734,"roll":0.027,"pitch":-0.12},"metrics":{"latency":85.6,"rates":{"update":6.092,"success":4.8}},"zones":[]}}]
[{"version":"1","alive":true,"tagId":"26651","success":true,"timestamp":1650204726.404,"data":{"tagData":{"gyro":{"x":-0.0625,"y":0.0625,"z":0.0625},"magnetic":{"x":4.75,"y":22.375,"z":-46.0625}},"anchorData":[],"coordinates":{"x":3048,"y":4956,"z":799},"acceleration":{"x":69,"y":7,"z":959},"orientation":{"yaw":5.949,"roll":0.07,"pitch":-0.005},"metrics":{"latency":59.9,"rates":{"update":6.205,"success":6.205}},"zones":[]}}]
[{"version":"1","tagId":"26660","alive":true,"success":false,"errorCode":"ERROR 0x0A: Not enough anchors available for positioning","timestamp":1650204726.552}]
[{"version":"1","alive":true,"tagId":"26651","success":true,"timestamp":1650204726.552,"data":{"tagData":{"gyro":{"x":0,"y":-0.125,"z":-0.0625},"magnetic":{"x":4.75,"y":22.0625,"z":-45.5625}},"anchorData":[],"coordinates":{"x":3049,"y":4956,"z":801},"acceleration":{"x":71,"y":5,"z":957},"orientation":{"yaw":5.949,"roll":0.07,"pitch":-0.005},"metrics":{"latency":79.7,"rates":{"update":6.179,"success":6.179}},"zones":[]}}]
[{"version":"1","alive":true,"tagId":"26660","success":true,"timestamp":1650204726.635,"data":{"tagData":{"gyro":{"x":5.875,"y":14.4375,"z":-9.375},"magnetic":{"x":1.6875,"y":13.5625,"z":-47.5625}},"anchorData":[],"coordinates":{"x":3059,"y":5849,"z":1301},"acceleration":{"x":-35,"y":63,"z":1068},"orientation":{"yaw":5.764,"roll":0.02,"pitch":-0.121},"metrics":{"latency":72.8,"rates":{"update":6.149,"success":4.588}},"zones":[]}}]
[{"version":"1","alive":true,"tagId":"26651","success":true,"timestamp":1650204726.718,"data":{"tagData":{"gyro":{"x":0,"y":0,"z":-0.1875},"magnetic":{"x":4.375,"y":22.0625,"z":-45.1875}},"anchorData":[],"coordinates":{"x":3043,"y":4955,"z":796},"acceleration":{"x":69,"y":4,"z":958},"orientation":{"yaw":5.949,"roll":0.07,"pitch":-0.005},"metrics":{"latency":59.9,"rates":{"update":6.237,"success":6.237}},"zones":[]}}]
[{"version":"1","alive":true,"tagId":"26660","success":true,"timestamp":1650204726.788,"data":{"tagData":{"gyro":{"x":15.5625,"y":8.6875,"z":21.5},"magnetic":{"x":0.5,"y":15.0625,"z":-48.375}},"anchorData":[],"coordinates":{"x":3069,"y":5858,"z":1306},"acceleration":{"x":2,"y":54,"z":940},"orientation":{"yaw":5.739,"roll":0.041,"pitch":-0.111},"metrics":{"latency":73.2,"rates":{"update":6.185,"success":4.728}},"zones":[]}}]
[{"version":"1","alive":true,"tagId":"26651","success":true,"timestamp":1650204726.871,"data":{"tagData":{"gyro":{"x":-0.0625,"y":0.1875,"z":0},"magnetic":{"x":4.75,"y":22.0625,"z":-46.0625}},"anchorData":[],"coordinates":{"x":3042,"y":4956,"z":797},"acceleration":{"x":68,"y":4,"z":958},"orientation":{"yaw":5.949,"roll":0.07,"pitch":-0.005},"metrics":{"latency":58.6,"rates":{"update":6.27,"success":6.27}},"zones":[]}}]
[{"version":"1","alive":true,"tagId":"26660","success":true,"timestamp":1650204726.934,"data":{"tagData":{"gyro":{"x":1.3125,"y":2.5625,"z":7.875},"magnetic":{"x":1.6875,"y":13.5625,"z":-49.25}},"anchorData":[],"coordinates":{"x":3074,"y":5866,"z":1314},"acceleration":{"x":-41,"y":135,"z":917},"orientation":{"yaw":5.709,"roll":0.011,"pitch":-0.125},"metrics":{"latency":72.6,"rates":{"update":6.248,"success":4.881}},"zones":[]}}]
[{"version":"1","alive":true,"tagId":"26651","success":true,"timestamp":1650204727.007,"data":{"tagData":{"gyro":{"x":-0.25,"y":0.0625,"z":0},"magnetic":{"x":4.75,"y":22.75,"z":-46.0625}},"anchorData":[],"coordinates":{"x":3046,"y":4955,"z":799},"acceleration":{"x":69,"y":3,"z":956},"orientation":{"yaw":5.949,"roll":0.07,"pitch":-0.005},"metrics":{"latency":70.7,"rates":{"update":6.318,"success":6.318}},"zones":[]}}]
[{"version":"1","alive":true,"tagId":"26660","success":true,"timestamp":1650204727.087,"data":{"tagData":{"gyro":{"x":3.9375,"y":-6.8125,"z":11.5},"magnetic":{"x":3.5,"y":13.5625,"z":-47.5625}},"anchorData":[],"coordinates":{"x":3077,"y":5882,"z":1352},"acceleration":{"x":-16,"y":233,"z":967},"orientation":{"yaw":5.663,"roll":0.026,"pitch":-0.117},"metrics":{"latency":82.2,"rates":{"update":6.238,"success":4.984}},"zones":[]}}]
[{"version":"1","alive":true,"tagId":"26651","success":true,"timestamp":1650204727.169,"data":{"tagData":{"gyro":{"x":0.1875,"y":-0.125,"z":0},"magnetic":{"x":5.1875,"y":22.375,"z":-45.1875}},"anchorData":[],"coordinates":{"x":3047,"y":4958,"z":821},"acceleration":{"x":70,"y":6,"z":957},"orientation":{"yaw":5.949,"roll":0.07,"pitch":-0.005},"metrics":{"latency":79,"rates":{"update":6.267,"success":6.267}},"zones":[]}}]
[{"version":"1","alive":true,"tagId":"26660","success":true,"timestamp":1650204727.248,"data":{"tagData":{"gyro":{"x":1.875,"y":-0.4375,"z":13.1875},"magnetic":{"x":3.1875,"y":13.1875,"z":-48}},"anchorData":[],"coordinates":{"x":3091,"y":5900,"z":1354},"acceleration":{"x":23,"y":223,"z":928},"orientation":{"yaw":5.641,"roll":0.041,"pitch":-0.133},"metrics":{"latency":81.4,"rates":{"update":6.237,"success":5.086}},"zones":[]}}]
[{"version":"1","alive":true,"tagId":"26651","success":true,"timestamp":1650204727.33,"data":{"tagData":{"gyro":{"x":-0.0625,"y":-0.1875,"z":0},"magnetic":{"x":4.375,"y":22.0625,"z":-46.875}},"anchorData":[],"coordinates":{"x":3040,"y":4961,"z":835},"acceleration":{"x":70,"y":4,"z":959},"orientation":{"yaw":5.949,"roll":0.07,"pitch":-0.005},"metrics":{"latency":72.7,"rates":{"update":6.289,"success":6.289}},"zones":[]}}]
[{"version":"1","tagId":"26660","alive":true,"success":false,"errorCode":"ERROR 0x0A: Not enough anchors available for positioning","timestamp":1650204727.503}]
[{"version":"1","alive":true,"tagId":"26651","success":true,"timestamp":1650204727.503,"data":{"tagData":{"gyro":{"x":-0.125,"y":-0.125,"z":0.25},"magnetic":{"x":5.1875,"y":22.75,"z":-46.0625}},"anchorData":[],"coordinates":{"x":3047,"y":4959,"z":818},"acceleration":{"x":69,"y":3,"z":961},"orientation":{"yaw":5.949,"roll":0.07,"pitch":-0.005},"metrics":{"latency":70.4,"rates":{"update":6.241,"success":6.241}},"zones":[]}}]
[{"version":"1","tagId":"26660","alive":true,"success":false,"errorCode":"ERROR 0x0A: Not enough anchors available for positioning","timestamp":1650204727.676}]
[{"version":"1","alive":true,"tagId":"26651","success":true,"timestamp":1650204727.676,"data":{"tagData":{"gyro":{"x":-0.1875,"y":0.1875,"z":0},"magnetic":{"x":5.5625,"y":22.375,"z":-44.75}},"anchorData":[],"coordinates":{"x":3052,"y":4958,"z":803},"acceleration":{"x":69,"y":4,"z":960},"orientation":{"yaw":5.949,"roll":0.07,"pitch":-0.005},"metrics":{"latency":70,"rates":{"update":6.193,"success":6.193}},"zones":[]}}]
[{"version":"1","alive":true,"tagId":"26660","success":true,"timestamp":1650204727.757,"data":{"tagData":{"gyro":{"x":-5.625,"y":2.3125,"z":70.6875},"magnetic":{"x":5.75,"y":12.0625,"z":-48}},"anchorData":[],"coordinates":{"x":3122,"y":5933,"z":1366},"acceleration":{"x":58,"y":122,"z":972},"orientation":{"yaw":5.358,"roll":0.075,"pitch":-0.095},"metrics":{"latency":84.3,"rates":{"update":6.079,"success":4.385}},"zones":[]}}]
[{"version":"1","alive":true,"tagId":"26651","success":true,"timestamp":1650204727.85,"data":{"tagData":{"gyro":{"x":0,"y":-0.1875,"z":0.0625},"magnetic":{"x":4.75,"y":23.1875,"z":-46.0625}},"anchorData":[],"coordinates":{"x":3053,"y":4958,"z":798},"acceleration":{"x":70,"y":6,"z":956},"orientation":{"yaw":5.949,"roll":0.07,"pitch":-0.005},"metrics":{"latency":66.7,"rates":{"update":6.163,"success":6.163}},"zones":[]}}]
[{"version":"1","alive":true,"tagId":"26660","success":true,"timestamp":1650204727.918,"data":{"tagData":{"gyro":{"x":9,"y":7.9375,"z":54.5},"magnetic":{"x":7.25,"y":12.75,"z":-48.875}},"anchorData":[],"coordinates":{"x":3165,"y":5974,"z":1376},"acceleration":{"x":75,"y":146,"z":997},"orientation":{"yaw":5.204,"roll":0.077,"pitch":-0.094},"metrics":{"latency":75.5,"rates":{"update":6.124,"success":4.535}},"zones":[]}}]
[{"version":"1","alive":true,"tagId":"26651","success":true,"timestamp":1650204727.993,"data":{"tagData":{"gyro":{"x":0.1875,"y":-0.0625,"z":-0.125},"magnetic":{"x":5.1875,"y":22.75,"z":-45.1875}},"anchorData":[],"coordinates":{"x":3052,"y":4959,"z":794},"acceleration":{"x":68,"y":5,"z":958},"orientation":{"yaw":5.949,"roll":0.07,"pitch":-0.005},"metrics":{"latency":66.4,"rates":{"update":6.234,"success":6.234}},"zones":[]}}]
[{"version":"1","tagId":"26660","alive":true,"success":false,"errorCode":"NO_CONNECTION: Communication with remote tag could not be established","timestamp":1650204728.06}]
[{"version":"1","alive":true,"tagId":"26651","success":true,"timestamp":1650204728.188,"data":{"tagData":{"gyro":{"x":-0.4375,"y":0,"z":0},"magnetic":{"x":5.1875,"y":22.0625,"z":-45.1875}},"anchorData":[],"coordinates":{"x":3050,"y":4961,"z":783},"acceleration":{"x":67,"y":3,"z":959},"orientation":{"yaw":5.949,"roll":0.07,"pitch":-0.005},"metrics":{"latency":62.5,"rates":{"update":6.118,"success":6.118}},"zones":[]}}]
[{"version":"1","tagId":"26660","alive":true,"success":false,"errorCode":"ERROR 0x0A: Not enough anchors available for positioning","timestamp":1650204729.297}]
[{"version":"1","alive":true,"tagId":"26651","success":true,"timestamp":1650204729.297,"data":{"tagData":{"gyro":{"x":-0.1875,"y":-0.125,"z":-0.0625},"magnetic":{"x":4.375,"y":23.1875,"z":-45.1875}},"anchorData":[],"coordinates":{"x":3051,"y":4962,"z":799},"acceleration":{"x":68,"y":7,"z":956},"orientation":{"yaw":5.949,"roll":0.07,"pitch":-0.005},"metrics":{"latency":64.5,"rates":{"update":3.873,"success":3.873}},"zones":[]}}]
[{"version":"1","alive":true,"tagId":"26660","success":true,"timestamp":1650204729.369,"data":{"tagData":{"gyro":{"x":-19,"y":7.875,"z":72.875},"magnetic":{"x":16.375,"y":-10.25,"z":-46.75}},"anchorData":[],"coordinates":{"x":3218,"y":6130,"z":1345},"acceleration":{"x":-56,"y":108,"z":1093},"orientation":{"yaw":3.987,"roll":0.072,"pitch":-0.121},"metrics":{"latency":70.4,"rates":{"update":3.999,"success":2.915}},"zones":[]}}]
[{"version":"1","alive":true,"tagId":"26651","success":true,"timestamp":1650204729.449,"data":{"tagData":{"gyro":{"x":-0.125,"y":0.0625,"z":0.0625},"magnetic":{"x":4.75,"y":23.1875,"z":-45.5625}},"anchorData":[],"coordinates":{"x":3049,"y":4963,"z":801},"acceleration":{"x":70,"y":4,"z":956},"orientation":{"yaw":5.949,"roll":0.07,"pitch":-0.005},"metrics":{"latency":60.8,"rates":{"update":4.044,"success":4.044}},"zones":[]}}]
[{"version":"1","alive":true,"tagId":"26660","success":true,"timestamp":1650204729.51,"data":{"tagData":{"gyro":{"x":5.1875,"y":-31.0625,"z":89.3125},"magnetic":{"x":15.25,"y":-13.25,"z":-45.0625}},"anchorData":[],"coordinates":{"x":3266,"y":6239,"z":1316},"acceleration":{"x":-71,"y":96,"z":1015},"orientation":{"yaw":3.762,"roll":0.085,"pitch":-0.092},"metrics":{"latency":87.7,"rates":{"update":4.151,"success":3.08}},"zones":[]}}]
[{"version":"1","alive":true,"tagId":"26651","success":true,"timestamp":1650204729.603,"data":{"tagData":{"gyro":{"x":-0.25,"y":0.1875,"z":0.125},"magnetic":{"x":5.1875,"y":22.375,"z":-45.1875}},"anchorData":[],"coordinates":{"x":3051,"y":4965,"z":814},"acceleration":{"x":69,"y":5,"z":955},"orientation":{"yaw":5.949,"roll":0.07,"pitch":-0.005},"metrics":{"latency":69.4,"rates":{"update":4.189,"success":4.189}},"zones":[]}}]
[{"version":"1","tagId":"26660","alive":true,"success":false,"errorCode":"ERROR 0x0A: Not enough anchors available for positioning","timestamp":1650204729.78}]
[{"version":"1","alive":true,"tagId":"26651","success":true,"timestamp":1650204729.799,"data":{"tagData":{"gyro":{"x":0.0625,"y":-0.1875,"z":0},"magnetic":{"x":4.75,"y":22.375,"z":-45.1875}},"anchorData":[],"coordinates":{"x":3052,"y":4966,"z":818},"acceleration":{"x":69,"y":3,"z":955},"orientation":{"yaw":5.949,"roll":0.07,"pitch":-0.005},"metrics":{"latency":60,"rates":{"update":4.281,"success":4.281}},"zones":[]}}]
[{"version":"1","alive":true,"tagId":"26660","success":true,"timestamp":1650204729.869,"data":{"tagData":{"gyro":{"x":10.5625,"y":-6.6875,"z":37.5},"magnetic":{"x":9,"y":-20.25,"z":-45.5}},"anchorData":[],"coordinates":{"x":3335,"y":6470,"z":1275},"acceleration":{"x":99,"y":199,"z":996},"orientation":{"yaw":3.404,"roll":0.081,"pitch":-0.112},"metrics":{"latency":80.7,"rates":{"update":4.361,"success":3.055}},"zones":[]}}]
[{"version":"1","alive":true,"tagId":"26651","success":true,"timestamp":1650204729.95,"data":{"tagData":{"gyro":{"x":0.25,"y":-0.125,"z":0.0625},"magnetic":{"x":4,"y":22.0625,"z":-45.5625}},"anchorData":[],"coordinates":{"x":3052,"y":4965,"z":811},"acceleration":{"x":69,"y":2,"z":957},"orientation":{"yaw":5.949,"roll":0.07,"pitch":-0.005},"metrics":{"latency":63.8,"rates":{"update":4.431,"success":4.431}},"zones":[]}}]
[{"version":"1","alive":true,"tagId":"26660","success":true,"timestamp":1650204730.014,"data":{"tagData":{"gyro":{"x":-15.9375,"y":3.6875,"z":37.9375},"magnetic":{"x":8.1875,"y":-21.875,"z":-45.5}},"anchorData":[],"coordinates":{"x":3353,"y":6589,"z":1276},"acceleration":{"x":15,"y":92,"z":1098},"orientation":{"yaw":3.317,"roll":0.081,"pitch":-0.13},"metrics":{"latency":82.6,"rates":{"update":4.524,"success":3.234}},"zones":[]}}]
[{"version":"1","alive":true,"tagId":"26651","success":true,"timestamp":1650204730.096,"data":{"tagData":{"gyro":{"x":-0.125,"y":0.25,"z":0},"magnetic":{"x":4.375,"y":22.0625,"z":-46.5}},"anchorData":[],"coordinates":{"x":3056,"y":4966,"z":813},"acceleration":{"x":70,"y":3,"z":957},"orientation":{"yaw":5.949,"roll":0.07,"pitch":-0.005},"metrics":{"latency":71.8,"rates":{"update":4.576,"success":4.576}},"zones":[]}}]
[{"version":"1","alive":true,"tagId":"26660","success":true,"timestamp":1650204730.168,"data":{"tagData":{"gyro":{"x":10.375,"y":17.375,"z":28.5625},"magnetic":{"x":6.375,"y":-22.25,"z":-44.5625}},"anchorData":[],"coordinates":{"x":3355,"y":6713,"z":1281},"acceleration":{"x":39,"y":70,"z":918},"orientation":{"yaw":3.218,"roll":0.075,"pitch":-0.108},"metrics":{"latency":79.7,"rates":{"update":4.671,"success":3.407}},"zones":[]}}]
[{"version":"1","alive":true,"tagId":"26651","success":true,"timestamp":1650204730.263,"data":{"tagData":{"gyro":{"x":0.0625,"y":0.0625,"z":0.0625},"magnetic":{"x":3.5625,"y":22.75,"z":-45.1875}},"anchorData":[],"coordinates":{"x":3053,"y":4965,"z":807},"acceleration":{"x":67,"y":4,"z":960},"orientation":{"yaw":5.949,"roll":0.07,"pitch":-0.005},"metrics":{"latency":64.9,"rates":{"update":4.703,"success":4.703}},"zones":[]}}]
[{"version":"1","tagId":"26660","alive":true,"success":false,"errorCode":"ERROR 0x0A: Not enough anchors available for positioning","timestamp":1650204730.441}]
[{"version":"1","alive":true,"tagId":"26651","success":true,"timestamp":1650204730.441,"data":{"tagData":{"gyro":{"x":-0.0625,"y":-0.0625,"z":0.0625},"magnetic":{"x":4.375,"y":22.75,"z":-46.5}},"anchorData":[],"coordinates":{"x":3049,"y":4963,"z":784},"acceleration":{"x":67,"y":5,"z":957},"orientation":{"yaw":5.949,"roll":0.07,"pitch":-0.005},"metrics":{"latency":60.1,"rates":{"update":4.791,"success":4.791}},"zones":[]}}]
[{"version":"1","alive":true,"tagId":"26660","success":true,"timestamp":1650204730.511,"data":{"tagData":{"gyro":{"x":-3.0625,"y":13.1875,"z":56.4375},"magnetic":{"x":5.1875,"y":-23.75,"z":-45.5}},"anchorData":[],"coordinates":{"x":3360,"y":6971,"z":1222},"acceleration":{"x":-24,"y":128,"z":1020},"orientation":{"yaw":2.999,"roll":0.005,"pitch":-0.082},"metrics":{"latency":79.4,"rates":{"update":4.84,"success":3.351}},"zones":[]}}]
[{"version":"1","alive":true,"tagId":"26651","success":true,"timestamp":1650204730.595,"data":{"tagData":{"gyro":{"x":0.125,"y":-0.25,"z":-0.0625},"magnetic":{"x":4.75,"y":22.75,"z":-44.75}},"anchorData":[],"coordinates":{"x":3053,"y":4963,"z":783},"acceleration":{"x":68,"y":6,"z":958},"orientation":{"yaw":5.949,"roll":0.07,"pitch":-0.005},"metrics":{"latency":59.9,"rates":{"update":4.921,"success":4.921}},"zones":[]}}]
[{"version":"1","alive":true,"tagId":"26660","success":true,"timestamp":1650204730.655,"data":{"tagData":{"gyro":{"x":-7.1875,"y":-4,"z":24.125},"magnetic":{"x":2.25,"y":-24.1875,"z":-44.1875}},"anchorData":[],"coordinates":{"x":3332,"y":7107,"z":1222},"acceleration":{"x":-12,"y":40,"z":1110},"orientation":{"yaw":2.875,"roll":0.024,"pitch":-0.107},"metrics":{"latency":96.5,"rates":{"update":4.95,"success":3.513}},"zones":[]}}]
[{"version":"1","alive":true,"tagId":"26651","success":true,"timestamp":1650204730.755,"data":{"tagData":{"gyro":{"x":0,"y":-0.25,"z":0},"magnetic":{"x":4.375,"y":22.75,"z":-46.0625}},"anchorData":[],"coordinates":{"x":3057,"y":4964,"z":794},"acceleration":{"x":69,"y":5,"z":955},"orientation":{"yaw":5.949,"roll":0.07,"pitch":-0.005},"metrics":{"latency":64,"rates":{"update":5.017,"success":5.017}},"zones":[]}}]
[{"version":"1","alive":true,"tagId":"26660","success":true,"timestamp":1650204730.829,"data":{"tagData":{"gyro":{"x":-8.0625,"y":-15.875,"z":39.8125},"magnetic":{"x":1.0625,"y":-25.25,"z":-44.25}},"anchorData":[],"coordinates":{"x":3302,"y":7237,"z":1217},"acceleration":{"x":-71,"y":39,"z":1069},"orientation":{"yaw":2.79,"roll":0.011,"pitch":-0.083},"metrics":{"latency":72.2,"rates":{"update":5.081,"success":3.688}},"zones":[]}}]
[{"version":"1","alive":true,"tagId":"26651","success":true,"timestamp":1650204730.916,"data":{"tagData":{"gyro":{"x":0.0625,"y":0.1875,"z":-0.125},"magnetic":{"x":4.375,"y":22.0625,"z":-47.375}},"anchorData":[],"coordinates":{"x":3059,"y":4963,"z":791},"acceleration":{"x":70,"y":5,"z":959},"orientation":{"yaw":5.949,"roll":0.07,"pitch":-0.005},"metrics":{"latency":60.6,"rates":{"update":5.123,"success":5.123}},"zones":[]}}]
[{"version":"1","alive":true,"tagId":"26660","success":true,"timestamp":1650204730.977,"data":{"tagData":{"gyro":{"x":-7.875,"y":11.5,"z":20.5},"magnetic":{"x":1.1875,"y":-23.6875,"z":-44.25}},"anchorData":[],"coordinates":{"x":3244,"y":7372,"z":1186},"acceleration":{"x":-52,"y":148,"z":817},"orientation":{"yaw":2.707,"roll":-0.01,"pitch":-0.069},"metrics":{"latency":90.1,"rates":{"update":5.162,"success":3.837}},"zones":[]}}]
[{"version":"1","alive":true,"tagId":"26651","success":true,"timestamp":1650204731.067,"data":{"tagData":{"gyro":{"x":0,"y":0.1875,"z":-0.0625},"magnetic":{"x":4.75,"y":23.1875,"z":-46.875}},"anchorData":[],"coordinates":{"x":3061,"y":4962,"z":791},"acceleration":{"x":68,"y":4,"z":961},"orientation":{"yaw":5.949,"roll":0.07,"pitch":-0.005},"metrics":{"latency":77,"rates":{"update":5.198,"success":5.198}},"zones":[]}}]
[{"version":"1","alive":true,"tagId":"26660","success":true,"timestamp":1650204731.148,"data":{"tagData":{"gyro":{"x":5.1875,"y":-1.875,"z":3.5625},"magnetic":{"x":-1,"y":-24.0625,"z":-44.5625}},"anchorData":[],"coordinates":{"x":3153,"y":7491,"z":1190},"acceleration":{"x":38,"y":204,"z":971},"orientation":{"yaw":2.673,"roll":0.001,"pitch":-0.104},"metrics":{"latency":82.6,"rates":{"update":5.245,"success":3.986}},"zones":[]}}]
[{"version":"1","alive":true,"tagId":"26651","success":true,"timestamp":1650204731.23,"data":{"tagData":{"gyro":{"x":0,"y":0.125,"z":0},"magnetic":{"x":5.5625,"y":22.375,"z":-45.5625}},"anchorData":[],"coordinates":{"x":3062,"y":4959,"z":807},"acceleration":{"x":69,"y":5,"z":958},"orientation":{"yaw":5.949,"roll":0.07,"pitch":-0.005},"metrics":{"latency":70,"rates":{"update":5.298,"success":5.298}},"zones":[]}}]
[{"version":"1","alive":true,"tagId":"26660","success":true,"timestamp":1650204731.3,"data":{"tagData":{"gyro":{"x":-19.6875,"y":-16.1875,"z":-31.6875},"magnetic":{"x":-1,"y":-24.375,"z":-45.875}},"anchorData":[],"coordinates":{"x":3046,"y":7597,"z":1216},"acceleration":{"x":60,"y":-97,"z":1214},"orientation":{"yaw":2.707,"roll":0.008,"pitch":-0.098},"metrics":{"latency":91.4,"rates":{"update":5.327,"success":4.133}},"zones":[]}}]
[{"version":"1","alive":true,"tagId":"26651","success":true,"timestamp":1650204731.392,"data":{"tagData":{"gyro":{"x":-0.125,"y":-0.125,"z":-0.0625},"magnetic":{"x":4.375,"y":22.375,"z":-44.75}},"anchorData":[],"coordinates":{"x":3065,"y":4957,"z":806},"acceleration":{"x":69,"y":3,"z":959},"orientation":{"yaw":5.949,"roll":0.07,"pitch":-0.005},"metrics":{"latency":72.1,"rates":{"update":5.37,"success":5.37}},"zones":[]}}]
[{"version":"1","alive":true,"tagId":"26660","success":true,"timestamp":1650204731.464,"data":{"tagData":{"gyro":{"x":-13.8125,"y":-2.3125,"z":-15.625},"magnetic":{"x":0.375,"y":-25.1875,"z":-43.75}},"anchorData":[],"coordinates":{"x":2932,"y":7699,"z":1241},"acceleration":{"x":77,"y":-5,"z":1038},"orientation":{"yaw":2.754,"roll":0.012,"pitch":-0.11},"metrics":{"latency":91.6,"rates":{"update":5.399,"success":4.273}},"zones":[]}}]
[{"version":"1","alive":true,"tagId":"26651","success":true,"timestamp":1650204731.555,"data":{"tagData":{"gyro":{"x":0,"y":0.125,"z":0},"magnetic":{"x":5.1875,"y":23.1875,"z":-46.5}},"anchorData":[],"coordinates":{"x":3058,"y":4957,"z":783},"acceleration":{"x":69,"y":6,"z":957},"orientation":{"yaw":5.949,"roll":0.07,"pitch":-0.005},"metrics":{"latency":60.1,"rates":{"update":5.472,"success":5.472}},"zones":[]}}]
[{"version":"1","alive":true,"tagId":"26660","success":true,"timestamp":1650204731.615,"data":{"tagData":{"gyro":{"x":-7.3125,"y":-2.75,"z":-3.875},"magnetic":{"x":1.875,"y":-24.0625,"z":-43.75}},"anchorData":[],"coordinates":{"x":2833,"y":7734,"z":1301},"acceleration":{"x":15,"y":184,"z":915},"orientation":{"yaw":2.781,"roll":-0.015,"pitch":-0.096},"metrics":{"latency":81.1,"rates":{"update":5.527,"success":4.448}},"zones":[]}}]
[{"version":"1","alive":true,"tagId":"26651","success":true,"timestamp":1650204731.697,"data":{"tagData":{"gyro":{"x":-0.1875,"y":0.3125,"z":-0.0625},"magnetic":{"x":4.75,"y":23.1875,"z":-46.875}},"anchorData":[],"coordinates":{"x":3060,"y":4954,"z":775},"acceleration":{"x":67,"y":6,"z":957},"orientation":{"yaw":5.949,"roll":0.07,"pitch":-0.005},"metrics":{"latency":66.9,"rates":{"update":5.577,"success":5.577}},"zones":[]}}]
[{"version":"1","alive":true,"tagId":"26660","success":true,"timestamp":1650204731.773,"data":{"tagData":{"gyro":{"x":-3.1875,"y":10.1875,"z":5.1875},"magnetic":{"x":1.875,"y":-23.6875,"z":-44.25}},"anchorData":[],"coordinates":{"x":2719,"y":7770,"z":1333},"acceleration":{"x":-81,"y":119,"z":1040},"orientation":{"yaw":2.778,"roll":-0.049,"pitch":-0.073},"metrics":{"latency":73.9,"rates":{"update":5.621,"success":4.599}},"zones":[]}}]
[{"version":"1","alive":true,"tagId":"26651","success":true,"timestamp":1650204731.865,"data":{"tagData":{"gyro":{"x":-0.125,"y":0.3125,"z":0.1875},"magnetic":{"x":4.375,"y":22.75,"z":-44.75}},"anchorData":[],"coordinates":{"x":3064,"y":4955,"z":783},"acceleration":{"x":70,"y":7,"z":957},"orientation":{"yaw":5.949,"roll":0.07,"pitch":-0.005},"metrics":{"latency":60.2,"rates":{"update":5.632,"success":5.632}},"zones":[]}}]
[{"version":"1","alive":true,"tagId":"26660","success":true,"timestamp":1650204731.935,"data":{"tagData":{"gyro":{"x":-21.0625,"y":3.375,"z":6.6875},"magnetic":{"x":2.5625,"y":-24.375,"z":-44.6875}},"anchorData":[],"coordinates":{"x":2602,"y":7800,"z":1371},"acceleration":{"x":-49,"y":103,"z":1021},"orientation":{"yaw":2.76,"roll":-0.041,"pitch":-0.109},"metrics":{"latency":78.2,"rates":{"update":5.658,"success":4.711}},"zones":[]}}]
[{"version":"1","alive":true,"tagId":"26651","success":true,"timestamp":1650204732.013,"data":{"tagData":{"gyro":{"x":0.125,"y":0.25,"z":0},"magnetic":{"x":4.375,"y":23.1875,"z":-45.1875}},"anchorData":[],"coordinates":{"x":3061,"y":4956,"z":775},"acceleration":{"x":67,"y":2,"z":959},"orientation":{"yaw":5.949,"roll":0.07,"pitch":-0.005},"metrics":{"latency":71.3,"rates":{"update":5.691,"success":5.691}},"zones":[]}}]
[{"version":"1","tagId":"26660","alive":true,"success":false,"errorCode":"ERROR 0x0A: Not enough anchors available for positioning","timestamp":1650204732.206}]
[{"version":"1","alive":true,"tagId":"26651","success":true,"timestamp":1650204732.206,"data":{"tagData":{"gyro":{"x":0.25,"y":-0.125,"z":0.125},"magnetic":{"x":4.375,"y":22.375,"z":-46.5}},"anchorData":[],"coordinates":{"x":3064,"y":4957,"z":781},"acceleration":{"x":68,"y":3,"z":958},"orientation":{"yaw":5.949,"roll":0.07,"pitch":-0.005},"metrics":{"latency":70,"rates":{"update":5.641,"success":5.641}},"zones":[]}}]
[{"version":"1","alive":true,"tagId":"26660","success":true,"timestamp":1650204732.276,"data":{"tagData":{"gyro":{"x":27.8125,"y":14.4375,"z":13},"magnetic":{"x":2.6875,"y":-23.25,"z":-44.6875}},"anchorData":[],"coordinates":{"x":2373,"y":7847,"z":1342},"acceleration":{"x":-71,"y":218,"z":802},"orientation":{"yaw":2.657,"roll":-0.081,"pitch":-0.106},"metrics":{"latency":78.5,"rates":{"update":5.671,"success":4.441}},"zones":[]}}]
[{"version":"1","alive":true,"tagId":"26651","success":true,"timestamp":1650204732.354,"data":{"tagData":{"gyro":{"x":0,"y":0,"z":0},"magnetic":{"x":4.375,"y":22.375,"z":-45.5625}},"anchorData":[],"coordinates":{"x":3058,"y":4956,"z":783},"acceleration":{"x":68,"y":5,"z":956},"orientation":{"yaw":5.949,"roll":0.07,"pitch":-0.005},"metrics":{"latency":70.1,"rates":{"update":5.733,"success":5.733}},"zones":[]}}]
[{"version":"1","alive":true,"tagId":"26660","success":true,"timestamp":1650204732.433,"data":{"tagData":{"gyro":{"x":3.6875,"y":-5.1875,"z":-0.25},"magnetic":{"x":3.5,"y":-24.375,"z":-44.25}},"anchorData":[],"coordinates":{"x":2255,"y":7870,"z":1336},"acceleration":{"x":-72,"y":127,"z":978},"orientation":{"yaw":2.655,"roll":-0.082,"pitch":-0.098},"metrics":{"latency":73.6,"rates":{"update":5.751,"success":4.59}},"zones":[]}}]
[{"version":"1","alive":true,"tagId":"26651","success":true,"timestamp":1650204732.506,"data":{"tagData":{"gyro":{"x":0.125,"y":0,"z":0.0625},"magnetic":{"x":4.75,"y":22.75,"z":-46.5}},"anchorData":[],"coordinates":{"x":3064,"y":4956,"z":796},"acceleration":{"x":67,"y":3,"z":957},"orientation":{"yaw":5.949,"roll":0.07,"pitch":-0.005},"metrics":{"latency":65.9,"rates":{"update":5.822,"success":5.822}},"zones":[]}}]
[{"version":"1","alive":true,"tagId":"26660","success":true,"timestamp":1650204732.572,"data":{"tagData":{"gyro":{"x":-13.5625,"y":-12.1875,"z":-13.25},"magnetic":{"x":2.25,"y":-25.1875,"z":-43.75}},"anchorData":[],"coordinates":{"x":2111,"y":7891,"z":1390},"acceleration":{"x":-27,"y":92,"z":1131},"orientation":{"yaw":2.67,"roll":-0.052,"pitch":-0.097},"metrics":{"latency":90.1,"rates":{"update":5.81,"success":4.724}},"zones":[]}}]
[{"version":"1","alive":true,"tagId":"26651","success":true,"timestamp":1650204732.662,"data":{"tagData":{"gyro":{"x":0.0625,"y":0,"z":0},"magnetic":{"x":4,"y":23.1875,"z":-46.0625}},"anchorData":[],"coordinates":{"x":3066,"y":4957,"z":807},"acceleration":{"x":68,"y":6,"z":958},"orientation":{"yaw":5.949,"roll":0.07,"pitch":-0.005},"metrics":{"latency":71.8,"rates":{"update":5.856,"success":5.856}},"zones":[]}}]
[{"version":"1","tagId":"26660","alive":true,"success":false,"errorCode":"ERROR 0x0A: Not enough anchors available for positioning","timestamp":1650204732.841}]
[{"version":"1","alive":true,"tagId":"26651","success":true,"timestamp":1650204732.855,"data":{"tagData":{"gyro":{"x":0,"y":0.0625,"z":0.0625},"magnetic":{"x":4.75,"y":22.75,"z":-46.0625}},"anchorData":[],"coordinates":{"x":3063,"y":4957,"z":816},"acceleration":{"x":68,"y":5,"z":957},"orientation":{"yaw":5.949,"roll":0.07,"pitch":-0.005},"metrics":{"latency":60.9,"rates":{"update":5.818,"success":5.818}},"zones":[]}}]
[{"version":"1","alive":true,"tagId":"26660","success":true,"timestamp":1650204732.926,"data":{"tagData":{"gyro":{"x":-4,"y":-4.625,"z":-5.6875},"magnetic":{"x":0.375,"y":-22.1875,"z":-44.6875}},"anchorData":[],"coordinates":{"x":1985,"y":7907,"z":1393},"acceleration":{"x":-2,"y":147,"z":832},"orientation":{"yaw":2.741,"roll":-0.009,"pitch":-0.07},"metrics":{"latency":81.1,"rates":{"update":5.785,"success":4.445}},"zones":[]}}]
[{"version":"1","alive":true,"tagId":"26651","success":true,"timestamp":1650204733.007,"data":{"tagData":{"gyro":{"x":-0.0625,"y":-0.0625,"z":-0.0625},"magnetic":{"x":4.75,"y":22.0625,"z":-47.375}},"anchorData":[],"coordinates":{"x":3061,"y":4957,"z":816},"acceleration":{"x":67,"y":5,"z":961},"orientation":{"yaw":5.949,"roll":0.07,"pitch":-0.005},"metrics":{"latency":74.4,"rates":{"update":5.84,"success":5.84}},"zones":[]}}]
[{"version":"1","tagId":"26660","alive":true,"success":false,"errorCode":"NO_CONNECTION: Communication with remote tag could not be established","timestamp":1650204733.081}]
[{"version":"1","alive":true,"tagId":"26651","success":true,"timestamp":1650204733.203,"data":{"tagData":{"gyro":{"x":0.1875,"y":0.125,"z":0},"magnetic":{"x":4,"y":23.1875,"z":-45.5625}},"anchorData":[],"coordinates":{"x":3053,"y":4960,"z":824},"acceleration":{"x":71,"y":6,"z":956},"orientation":{"yaw":5.949,"roll":0.07,"pitch":-0.005},"metrics":{"latency":60.3,"rates":{"update":5.805,"success":5.805}},"zones":[]}}]
[{"version":"1","alive":true,"tagId":"26660","success":true,"timestamp":1650204733.263,"data":{"tagData":{"gyro":{"x":-26.125,"y":-1.5625,"z":36},"magnetic":{"x":-0.375,"y":-24.375,"z":-45.0625}},"anchorData":[],"coordinates":{"x":1859,"y":7921,"z":1391},"acceleration":{"x":-59,"y":-107,"z":1225},"orientation":{"yaw":2.667,"roll":-0.003,"pitch":-0.089},"metrics":{"latency":91.1,"rates":{"update":5.754,"success":4.216}},"zones":[]}}]
[{"version":"1","alive":true,"tagId":"26651","success":true,"timestamp":1650204733.357,"data":{"tagData":{"gyro":{"x":0.0625,"y":-0.1875,"z":-0.0625},"magnetic":{"x":4,"y":22.75,"z":-46.875}},"anchorData":[],"coordinates":{"x":3055,"y":4961,"z":825},"acceleration":{"x":67,"y":5,"z":957},"orientation":{"yaw":5.949,"roll":0.07,"pitch":-0.005},"metrics":{"latency":62.3,"rates":{"update":5.86,"success":5.86}},"zones":[]}}]
[{"version":"1","alive":true,"tagId":"26660","success":true,"timestamp":1650204733.419,"data":{"tagData":{"gyro":{"x":-6.625,"y":-20.875,"z":51.1875},"magnetic":{"x":-1.5,"y":-23.25,"z":-44.6875}},"anchorData":[],"coordinates":{"x":1731,"y":7942,"z":1343},"acceleration":{"x":-49,"y":72,"z":919},"orientation":{"yaw":2.543,"roll":0.009,"pitch":-0.112},"metrics":{"latency":72.6,"rates":{"update":5.876,"success":4.401}},"zones":[]}}]
[{"version":"1","alive":true,"tagId":"26651","success":true,"timestamp":1650204733.492,"data":{"tagData":{"gyro":{"x":0.125,"y":0.125,"z":0},"magnetic":{"x":4.375,"y":22.75,"z":-45.5625}},"anchorData":[],"coordinates":{"x":3054,"y":4962,"z":806},"acceleration":{"x":67,"y":5,"z":956},"orientation":{"yaw":5.949,"roll":0.07,"pitch":-0.005},"metrics":{"latency":75.3,"rates":{"update":5.939,"success":5.939}},"zones":[]}}]
[{"version":"1","alive":true,"tagId":"26660","success":true,"timestamp":1650204733.567,"data":{"tagData":{"gyro":{"x":7.75,"y":-1.5,"z":42.8125},"magnetic":{"x":-6,"y":-22.875,"z":-43.875}},"anchorData":[],"coordinates":{"x":1626,"y":7952,"z":1348},"acceleration":{"x":-43,"y":105,"z":882},"orientation":{"yaw":2.427,"roll":0.017,"pitch":-0.104},"metrics":{"latency":70,"rates":{"update":5.964,"success":4.566}},"zones":[]}}]
[{"version":"1","alive":true,"tagId":"26651","success":true,"timestamp":1650204733.643,"data":{"tagData":{"gyro":{"x":0.1875,"y":0.0625,"z":-0.125},"magnetic":{"x":4.75,"y":22.75,"z":-45.1875}},"anchorData":[],"coordinates":{"x":3056,"y":4963,"z":824},"acceleration":{"x":70,"y":3,"z":953},"orientation":{"yaw":5.949,"roll":0.07,"pitch":-0.005},"metrics":{"latency":68,"rates":{"update":6.028,"success":6.028}},"zones":[]}}]
[{"version":"1","alive":true,"tagId":"26660","success":true,"timestamp":1650204733.712,"data":{"tagData":{"gyro":{"x":16.6875,"y":-4.0625,"z":38.0625},"magnetic":{"x":-6.75,"y":-22.875,"z":-43.75}},"anchorData":[],"coordinates":{"x":1508,"y":7954,"z":1297},"acceleration":{"x":21,"y":92,"z":984},"orientation":{"yaw":2.329,"roll":0.04,"pitch":-0.123},"metrics":{"latency":74.6,"rates":{"update":6.03,"success":4.716}},"zones":[]}}]
[{"version":"1","alive":true,"tagId":"26651","success":true,"timestamp":1650204733.8,"data":{"tagData":{"gyro":{"x":0.0625,"y":0,"z":0.0625},"magnetic":{"x":4.375,"y":21.6875,"z":-45.5625}},"anchorData":[],"coordinates":{"x":3059,"y":4962,"z":837},"acceleration":{"x":67,"y":3,"z":956},"orientation":{"yaw":5.949,"roll":0.07,"pitch":-0.005},"metrics":{"latency":60.1,"rates":{"update":6.088,"success":6.088}},"zones":[]}}]
[{"version":"1","alive":true,"tagId":"26660","success":true,"timestamp":1650204733.879,"data":{"tagData":{"gyro":{"x":8.4375,"y":30.25,"z":39.8125},"magnetic":{"x":-10.875,"y":-23.5,"z":-42.875}},"anchorData":[],"coordinates":{"x":1392,"y":7954,"z":1253},"acceleration":{"x":15,"y":-68,"z":998},"orientation":{"yaw":2.235,"roll":0.064,"pitch":-0.108},"metrics":{"latency":85.2,"rates":{"update":5.985,"success":4.792}},"zones":[]}}]
[{"version":"1","alive":true,"tagId":"26651","success":true,"timestamp":1650204733.965,"data":{"tagData":{"gyro":{"x":-0.25,"y":-0.0625,"z":-0.0625},"magnetic":{"x":4.75,"y":22.75,"z":-44.25}},"anchorData":[],"coordinates":{"x":3054,"y":4962,"z":847},"acceleration":{"x":67,"y":3,"z":956},"orientation":{"yaw":5.949,"roll":0.07,"pitch":-0.005},"metrics":{"latency":64.7,"rates":{"update":6.068,"success":6.068}},"zones":[]}}]
[{"version":"1","alive":true,"tagId":"26660","success":true,"timestamp":1650204734.03,"data":{"tagData":{"gyro":{"x":0.0625,"y":8.75,"z":97.0625},"magnetic":{"x":-13.0625,"y":-19.6875,"z":-42.875}},"anchorData":[],"coordinates":{"x":1263,"y":7938,"z":1235},"acceleration":{"x":-40,"y":-168,"z":1169},"orientation":{"yaw":2.051,"roll":0.053,"pitch":-0.094},"metrics":{"latency":80,"rates":{"update":6.064,"success":4.942}},"zones":[]}}]
[{"version":"1","alive":true,"tagId":"26651","success":true,"timestamp":1650204734.11,"data":{"tagData":{"gyro":{"x":0.375,"y":-0.5,"z":0.125},"magnetic":{"x":4.75,"y":22.0625,"z":-45.5625}},"anchorData":[],"coordinates":{"x":3053,"y":4963,"z":842},"acceleration":{"x":70,"y":3,"z":958},"orientation":{"yaw":5.949,"roll":0.07,"pitch":-0.005},"metrics":{"latency":68.3,"rates":{"update":6.129,"success":6.129}},"zones":[]}}]
[{"version":"1","alive":true,"tagId":"26660","success":true,"timestamp":1650204734.178,"data":{"tagData":{"gyro":{"x":-18.875,"y":27.375,"z":122.5625},"magnetic":{"x":-16.5,"y":-17.75,"z":-42}},"anchorData":[],"coordinates":{"x":1157,"y":7917,"z":1241},"acceleration":{"x":-39,"y":-64,"z":994},"orientation":{"yaw":1.788,"roll":0.035,"pitch":-0.115},"metrics":{"latency":94.5,"rates":{"update":6.072,"success":5.041}},"zones":[]}}]
[{"version":"1","alive":true,"tagId":"26651","success":true,"timestamp":1650204734.281,"data":{"tagData":{"gyro":{"x":-0.0625,"y":0,"z":0.0625},"magnetic":{"x":5.1875,"y":22.75,"z":-46.5}},"anchorData":[],"coordinates":{"x":3052,"y":4960,"z":868},"acceleration":{"x":65,"y":4,"z":956},"orientation":{"yaw":5.949,"roll":0.07,"pitch":-0.005},"metrics":{"latency":64.5,"rates":{"update":6.114,"success":6.114}},"zones":[]}}]
[{"version":"1","alive":true,"tagId":"26660","success":true,"timestamp":1650204734.345,"data":{"tagData":{"gyro":{"x":9.875,"y":4.8125,"z":142.6875},"magnetic":{"x":-19.1875,"y":-11.0625,"z":-45}},"anchorData":[],"coordinates":{"x":1087,"y":7889,"z":1171},"acceleration":{"x":38,"y":-19,"z":961},"orientation":{"yaw":1.39,"roll":0.049,"pitch":-0.096},"metrics":{"latency":78,"rates":{"update":6.124,"success":5.165}},"zones":[]}}]
[{"version":"1","alive":true,"tagId":"26651","success":true,"timestamp":1650204734.423,"data":{"tagData":{"gyro":{"x":-0.3125,"y":-0.0625,"z":0.0625},"magnetic":{"x":4,"y":22.75,"z":-45.5625}},"anchorData":[],"coordinates":{"x":3053,"y":4961,"z":862},"acceleration":{"x":68,"y":4,"z":957},"orientation":{"yaw":5.949,"roll":0.07,"pitch":-0.005},"metrics":{"latency":70,"rates":{"update":6.173,"success":6.173}},"zones":[]}}]
[{"version":"1","alive":true,"tagId":"26660","success":true,"timestamp":1650204734.503,"data":{"tagData":{"gyro":{"x":6.6875,"y":17.3125,"z":141.125},"magnetic":{"x":-20.5625,"y":-5,"z":-45.5}},"anchorData":[],"coordinates":{"x":1026,"y":7860,"z":1140},"acceleration":{"x":-5,"y":-70,"z":989},"orientation":{"yaw":1.067,"roll":0.032,"pitch":-0.083},"metrics":{"latency":87.8,"rates":{"update":6.107,"success":5.235}},"zones":[]}}]
[{"version":"1","alive":true,"tagId":"26651","success":true,"timestamp":1650204734.591,"data":{"tagData":{"gyro":{"x":-0.0625,"y":0.125,"z":0},"magnetic":{"x":5.1875,"y":22.75,"z":-45.5625}},"anchorData":[],"coordinates":{"x":3055,"y":4961,"z":859},"acceleration":{"x":68,"y":3,"z":958},"orientation":{"yaw":5.949,"roll":0.07,"pitch":-0.005},"metrics":{"latency":59.9,"rates":{"update":6.189,"success":6.189}},"zones":[]}}]
[{"version":"1","alive":true,"tagId":"26660","success":true,"timestamp":1650204734.651,"data":{"tagData":{"gyro":{"x":3.9375,"y":21.1875,"z":139.8125},"magnetic":{"x":-19.875,"y":2.5,"z":-45.875}},"anchorData":[],"coordinates":{"x":962,"y":7834,"z":1158},"acceleration":{"x":7,"y":-42,"z":873},"orientation":{"yaw":0.761,"roll":0.032,"pitch":-0.069},"metrics":{"latency":80.8,"rates":{"update":6.194,"success":5.376}},"zones":[]}}]
[{"version":"1","alive":true,"tagId":"26651","success":true,"timestamp":1650204734.732,"data":{"tagData":{"gyro":{"x":-0.125,"y":0.125,"z":0.0625},"magnetic":{"x":5.5625,"y":23.1875,"z":-46.5}},"anchorData":[],"coordinates":{"x":3052,"y":4962,"z":847},"acceleration":{"x":69,"y":2,"z":958},"orientation":{"yaw":5.949,"roll":0.07,"pitch":-0.005},"metrics":{"latency":70,"rates":{"update":6.231,"success":6.231}},"zones":[]}}]
[{"version":"1","alive":true,"tagId":"26660","success":true,"timestamp":1650204734.812,"data":{"tagData":{"gyro":{"x":-11.5625,"y":1.125,"z":114.125},"magnetic":{"x":-15.6875,"y":10.375,"z":-45.5}},"anchorData":[],"coordinates":{"x":922,"y":7808,"z":1163},"acceleration":{"x":36,"y":13,"z":1044},"orientation":{"yaw":0.467,"roll":0.019,"pitch":-0.039},"metrics":{"latency":79.7,"rates":{"update":6.201,"success":5.454}},"zones":[]}}]
[{"version":"1","alive":true,"tagId":"26651","success":true,"timestamp":1650204734.905,"data":{"tagData":{"gyro":{"x":0.25,"y":-0.0625,"z":0},"magnetic":{"x":4.375,"y":22.375,"z":-45.1875}},"anchorData":[],"coordinates":{"x":3051,"y":4963,"z":841},"acceleration":{"x":67,"y":4,"z":958},"orientation":{"yaw":5.949,"roll":0.07,"pitch":-0.005},"metrics":{"latency":62.6,"rates":{"update":6.211,"success":6.211}},"zones":[]}}]
[{"version":"1","tagId":"26660","alive":true,"success":false,"errorCode":"ERROR 0x0A: Not enough anchors available for positioning","timestamp":1650204735.069}]
[{"version":"1","alive":true,"tagId":"26651","success":true,"timestamp":1650204735.069,"data":{"tagData":{"gyro":{"x":0.1875,"y":-0.3125,"z":0.0625},"magnetic":{"x":4.375,"y":21.25,"z":-46.5}},"anchorData":[],"coordinates":{"x":3051,"y":4962,"z":829},"acceleration":{"x":67,"y":4,"z":958},"orientation":{"yaw":5.949,"roll":0.07,"pitch":-0.005},"metrics":{"latency":66.9,"rates":{"update":6.182,"success":6.182}},"zones":[]}}]
[{"version":"1","alive":true,"tagId":"26660","success":true,"timestamp":1650204735.146,"data":{"tagData":{"gyro":{"x":-0.9375,"y":3.3125,"z":69.25},"magnetic":{"x":-6.75,"y":17.5625,"z":-44.5625}},"anchorData":[],"coordinates":{"x":890,"y":7787,"z":1167},"acceleration":{"x":18,"y":85,"z":1004},"orientation":{"yaw":0.091,"roll":0.015,"pitch":-0.005},"metrics":{"latency":84.2,"rates":{"update":6.116,"success":5.028}},"zones":[]}}]
[{"version":"1","alive":true,"tagId":"26651","success":true,"timestamp":1650204735.23,"data":{"tagData":{"gyro":{"x":-0.1875,"y":0.0625,"z":-0.0625},"magnetic":{"x":4.375,"y":22.0625,"z":-47.75}},"anchorData":[],"coordinates":{"x":3054,"y":4962,"z":827},"acceleration":{"x":66,"y":3,"z":957},"orientation":{"yaw":5.949,"roll":0.07,"pitch":-0.005},"metrics":{"latency":65.3,"rates":{"update":6.191,"success":6.191}},"zones":[]}}]
[{"version":"1","alive":true,"tagId":"26660","success":true,"timestamp":1650204735.305,"data":{"tagData":{"gyro":{"x":-4.75,"y":3.25,"z":33.25},"magnetic":{"x":-3.375,"y":17.875,"z":-46.25}},"anchorData":[],"coordinates":{"x":884,"y":7775,"z":1143},"acceleration":{"x":27,"y":-49,"z":1142},"orientation":{"yaw":6.264,"roll":0,"pitch":-0.031},"metrics":{"latency":81.7,"rates":{"update":6.141,"success":5.137}},"zones":[]}}]
[{"version":"1","alive":true,"tagId":"26651","success":true,"timestamp":1650204735.387,"data":{"tagData":{"gyro":{"x":0.1875,"y":-0.0625,"z":0.0625},"magnetic":{"x":4.375,"y":22.375,"z":-45.1875}},"anchorData":[],"coordinates":{"x":3064,"y":4960,"z":820},"acceleration":{"x":66,"y":4,"z":957},"orientation":{"yaw":5.949,"roll":0.07,"pitch":-0.005},"metrics":{"latency":62.4,"rates":{"update":6.22,"success":6.22}},"zones":[]}}]
[{"version":"1","alive":true,"tagId":"26660","success":true,"timestamp":1650204735.449,"data":{"tagData":{"gyro":{"x":10.875,"y":2.875,"z":22.625},"magnetic":{"x":-1.5,"y":17.875,"z":-46.6875}},"anchorData":[],"coordinates":{"x":889,"y":7758,"z":1144},"acceleration":{"x":73,"y":87,"z":969},"orientation":{"yaw":6.212,"roll":-0.002,"pitch":-0.055},"metrics":{"latency":90.6,"rates":{"update":6.178,"success":5.249}},"zones":[]}}]
[{"version":"1","alive":true,"tagId":"26651","success":true,"timestamp":1650204735.54,"data":{"tagData":{"gyro":{"x":0,"y":-0.0625,"z":0.0625},"magnetic":{"x":4.375,"y":23.1875,"z":-46.0625}},"anchorData":[],"coordinates":{"x":3061,"y":4960,"z":819},"acceleration":{"x":68,"y":2,"z":957},"orientation":{"yaw":5.949,"roll":0.07,"pitch":-0.005},"metrics":{"latency":72,"rates":{"update":6.213,"success":6.213}},"zones":[]}}]
[{"version":"1","alive":true,"tagId":"26660","success":true,"timestamp":1650204735.612,"data":{"tagData":{"gyro":{"x":12,"y":-5.375,"z":20.875},"magnetic":{"x":-0.75,"y":17.1875,"z":-47.1875}},"anchorData":[],"coordinates":{"x":915,"y":7747,"z":1144},"acceleration":{"x":63,"y":135,"z":881},"orientation":{"yaw":6.176,"roll":0,"pitch":-0.041},"metrics":{"latency":83.3,"rates":{"update":6.203,"success":5.348}},"zones":[]}}]
[{"version":"1","alive":true,"tagId":"26651","success":true,"timestamp":1650204735.695,"data":{"tagData":{"gyro":{"x":-0.0625,"y":0.125,"z":0.0625},"magnetic":{"x":4.375,"y":22.375,"z":-45.5625}},"anchorData":[],"coordinates":{"x":3064,"y":4960,"z":828},"acceleration":{"x":69,"y":5,"z":958},"orientation":{"yaw":5.949,"roll":0.07,"pitch":-0.005},"metrics":{"latency":76.2,"rates":{"update":6.219,"success":6.219}},"zones":[]}}]
[{"version":"1","alive":true,"tagId":"26660","success":true,"timestamp":1650204735.771,"data":{"tagData":{"gyro":{"x":0.625,"y":0.9375,"z":12},"magnetic":{"x":0,"y":17.1875,"z":-46.6875}},"anchorData":[],"coordinates":{"x":950,"y":7731,"z":1171},"acceleration":{"x":70,"y":128,"z":980},"orientation":{"yaw":6.148,"roll":0.009,"pitch":-0.026},"metrics":{"latency":87.4,"rates":{"update":6.194,"success":5.415}},"zones":[]}}]
[{"version":"1","alive":true,"tagId":"26651","success":true,"timestamp":1650204735.869,"data":{"tagData":{"gyro":{"x":0,"y":0,"z":0},"magnetic":{"x":4.75,"y":23.1875,"z":-45.5625}},"anchorData":[],"coordinates":{"x":3063,"y":4960,"z":814},"acceleration":{"x":67,"y":3,"z":959},"orientation":{"yaw":5.949,"roll":0.07,"pitch":-0.005},"metrics":{"latency":60,"rates":{"update":6.232,"success":6.232}},"zones":[]}}]
[{"version":"1","alive":true,"tagId":"26660","success":true,"timestamp":1650204735.939,"data":{"tagData":{"gyro":{"x":13.8125,"y":5.625,"z":11.875},"magnetic":{"x":1.1875,"y":17.5625,"z":-46.25}},"anchorData":[],"coordinates":{"x":987,"y":7719,"z":1197},"acceleration":{"x":21,"y":130,"z":1061},"orientation":{"yaw":6.126,"roll":0.007,"pitch":-0.068},"metrics":{"latency":82.6,"rates":{"update":6.189,"success":5.481}},"zones":[]}}]
[{"version":"1","alive":true,"tagId":"26651","success":true,"timestamp":1650204736.022,"data":{"tagData":{"gyro":{"x":-0.0625,"y":-0.0625,"z":-0.0625},"magnetic":{"x":4.375,"y":22.75,"z":-45.1875}},"anchorData":[],"coordinates":{"x":3064,"y":4958,"z":802},"acceleration":{"x":68,"y":5,"z":958},"orientation":{"yaw":5.949,"roll":0.07,"pitch":-0.005},"metrics":{"latency":64.1,"rates":{"update":6.246,"success":6.246}},"zones":[]}}]
[{"version":"1","tagId":"26660","alive":true,"success":false,"errorCode":"ERROR 0x0A: Not enough anchors available for positioning","timestamp":1650204736.188}]
[{"version":"1","alive":true,"tagId":"26651","success":true,"timestamp":1650204736.192,"data":{"tagData":{"gyro":{"x":0,"y":-0.0625,"z":0},"magnetic":{"x":3.5625,"y":23.1875,"z":-45.5625}},"anchorData":[],"coordinates":{"x":3064,"y":4959,"z":791},"acceleration":{"x":68,"y":4,"z":956},"orientation":{"yaw":5.949,"roll":0.07,"pitch":-0.005},"metrics":{"latency":70.6,"rates":{"update":6.18,"success":6.18}},"zones":[]}}]
[{"version":"1","alive":true,"tagId":"26660","success":true,"timestamp":1650204736.264,"data":{"tagData":{"gyro":{"x":-16.8125,"y":-6.625,"z":30.5625},"magnetic":{"x":1.5625,"y":15.25,"z":-45.75}},"anchorData":[],"coordinates":{"x":1148,"y":7707,"z":1287},"acceleration":{"x":-49,"y":7,"z":1013},"orientation":{"yaw":6.058,"roll":0.031,"pitch":-0.077},"metrics":{"latency":82.2,"rates":{"update":6.155,"success":5.085}},"zones":[]}}]
[{"version":"1","alive":true,"tagId":"26651","success":true,"timestamp":1650204736.346,"data":{"tagData":{"gyro":{"x":0,"y":0,"z":-0.125},"magnetic":{"x":4.375,"y":23.5625,"z":-46.5}},"anchorData":[],"coordinates":{"x":3057,"y":4958,"z":796},"acceleration":{"x":66,"y":4,"z":956},"orientation":{"yaw":5.949,"roll":0.07,"pitch":-0.005},"metrics":{"latency":60.1,"rates":{"update":6.252,"success":6.252}},"zones":[]}}]
[{"version":"1","tagId":"26660","alive":true,"success":false,"errorCode":"ERROR 0x0A: Not enough anchors available for positioning","timestamp":1650204736.511}]
[{"version":"1","alive":true,"tagId":"26651","success":true,"timestamp":1650204736.511,"data":{"tagData":{"gyro":{"x":0,"y":0,"z":0},"magnetic":{"x":4.75,"y":23.1875,"z":-46.0625}},"anchorData":[],"coordinates":{"x":3053,"y":4961,"z":779},"acceleration":{"x":67,"y":4,"z":958},"orientation":{"yaw":5.949,"roll":0.07,"pitch":-0.005},"metrics":{"latency":58,"rates":{"update":6.24,"success":6.24}},"zones":[]}}]
[{"version":"1","tagId":"26660","alive":true,"success":false,"errorCode":"NO_CONNECTION: Communication with remote tag could not be established","timestamp":1650204736.569}]
[{"version":"1","alive":true,"tagId":"26651","success":true,"timestamp":1650204736.645,"data":{"tagData":{"gyro":{"x":-0.0625,"y":-0.0625,"z":0.0625},"magnetic":{"x":4.375,"y":21.6875,"z":-46.5}},"anchorData":[],"coordinates":{"x":3048,"y":4961,"z":782},"acceleration":{"x":69,"y":2,"z":957},"orientation":{"yaw":5.949,"roll":0.07,"pitch":-0.005},"metrics":{"latency":70.1,"rates":{"update":6.296,"success":6.296}},"zones":[]}}]
[{"version":"1","alive":true,"tagId":"26660","success":true,"timestamp":1650204736.715,"data":{"tagData":{"gyro":{"x":10.5625,"y":-10.0625,"z":-15.75},"magnetic":{"x":3.6875,"y":15.25,"z":-46.75}},"anchorData":[],"coordinates":{"x":1426,"y":7773,"z":1383},"acceleration":{"x":100,"y":221,"z":940},"orientation":{"yaw":6.072,"roll":0.013,"pitch":-0.117},"metrics":{"latency":90.3,"rates":{"update":6.206,"success":4.485}},"zones":[]}}]
[{"version":"1","alive":true,"tagId":"26651","success":true,"timestamp":1650204736.816,"data":{"tagData":{"gyro":{"x":-0.125,"y":0.0625,"z":0},"magnetic":{"x":4,"y":23.5625,"z":-46.5}},"anchorData":[],"coordinates":{"x":3049,"y":4959,"z":791},"acceleration":{"x":66,"y":5,"z":959},"orientation":{"yaw":5.949,"roll":0.07,"pitch":-0.005},"metrics":{"latency":60,"rates":{"update":6.29,"success":6.29}},"zones":[]}}]
[{"version":"1","alive":true,"tagId":"26660","success":true,"timestamp":1650204736.886,"data":{"tagData":{"gyro":{"x":38.125,"y":14.125,"z":-27.125},"magnetic":{"x":2.1875,"y":18.6875,"z":-46.75}},"anchorData":[],"coordinates":{"x":1519,"y":7809,"z":1418},"acceleration":{"x":28,"y":106,"z":890},"orientation":{"yaw":6.141,"roll":0.012,"pitch":-0.089},"metrics":{"latency":78.9,"rates":{"update":6.212,"success":4.617}},"zones":[]}}]
[{"version":"1","alive":true,"tagId":"26651","success":true,"timestamp":1650204736.975,"data":{"tagData":{"gyro":{"x":0,"y":0.25,"z":-0.0625},"magnetic":{"x":4.375,"y":22.75,"z":-44.75}},"anchorData":[],"coordinates":{"x":3050,"y":4959,"z":794},"acceleration":{"x":67,"y":3,"z":960},"orientation":{"yaw":5.949,"roll":0.07,"pitch":-0.005},"metrics":{"latency":66,"rates":{"update":6.265,"success":6.265}},"zones":[]}}]
[{"version":"1","alive":true,"tagId":"26660","success":true,"timestamp":1650204737.045,"data":{"tagData":{"gyro":{"x":21.625,"y":2.125,"z":-21.125},"magnetic":{"x":1.5625,"y":17.1875,"z":-45.875}},"anchorData":[],"coordinates":{"x":1621,"y":7843,"z":1417},"acceleration":{"x":48,"y":168,"z":832},"orientation":{"yaw":6.197,"roll":0.007,"pitch":-0.081},"metrics":{"latency":80.7,"rates":{"update":6.213,"success":4.739}},"zones":[]}}]
[{"version":"1","alive":true,"tagId":"26651","success":true,"timestamp":1650204737.126,"data":{"tagData":{"gyro":{"x":0.1875,"y":0.125,"z":0},"magnetic":{"x":5.1875,"y":23.5625,"z":-45.5625}},"anchorData":[],"coordinates":{"x":3051,"y":4960,"z":798},"acceleration":{"x":67,"y":3,"z":957},"orientation":{"yaw":5.949,"roll":0.07,"pitch":-0.005},"metrics":{"latency":70,"rates":{"update":6.284,"success":6.284}},"zones":[]}}]
[{"version":"1","alive":true,"tagId":"26660","success":true,"timestamp":1650204737.206,"data":{"tagData":{"gyro":{"x":17.1875,"y":7.0625,"z":0.25},"magnetic":{"x":0.6875,"y":17.5625,"z":-46.25}},"anchorData":[],"coordinates":{"x":1724,"y":7868,"z":1416},"acceleration":{"x":4,"y":86,"z":1080},"orientation":{"yaw":6.219,"roll":0,"pitch":-0.068},"metrics":{"latency":74.9,"rates":{"update":6.237,"success":4.869}},"zones":[]}}]
[{"version":"1","alive":true,"tagId":"26651","success":true,"timestamp":1650204737.281,"data":{"tagData":{"gyro":{"x":0.25,"y":-0.25,"z":-0.0625},"magnetic":{"x":5.1875,"y":22.75,"z":-45.5625}},"anchorData":[],"coordinates":{"x":3049,"y":4960,"z":795},"acceleration":{"x":68,"y":4,"z":958},"orientation":{"yaw":5.949,"roll":0.07,"pitch":-0.005},"metrics":{"latency":82.8,"rates":{"update":6.25,"success":6.25}},"zones":[]}}]
[{"version":"1","alive":true,"tagId":"26660","success":true,"timestamp":1650204737.363,"data":{"tagData":{"gyro":{"x":-30.3125,"y":1.1875,"z":13.0625},"magnetic":{"x":2.5625,"y":17.1875,"z":-47.0625}},"anchorData":[],"coordinates":{"x":1835,"y":7889,"z":1417},"acceleration":{"x":-61,"y":-134,"z":1244},"orientation":{"yaw":6.205,"roll":-0.033,"pitch":-0.06},"metrics":{"latency":85.7,"rates":{"update":6.205,"success":4.958}},"zones":[]}}]
[{"version":"1","alive":true,"tagId":"26651","success":true,"timestamp":1650204737.449,"data":{"tagData":{"gyro":{"x":0.0625,"y":-0.125,"z":-0.0625},"magnetic":{"x":5.1875,"y":22.375,"z":-47.375}},"anchorData":[],"coordinates":{"x":3047,"y":4960,"z":794},"acceleration":{"x":66,"y":3,"z":954},"orientation":{"yaw":5.949,"roll":0.07,"pitch":-0.005},"metrics":{"latency":71.1,"rates":{"update":6.263,"success":6.263}},"zones":[]}}]
[{"version":"1","tagId":"26660","alive":true,"success":false,"errorCode":"ERROR 0x0A: Not enough anchors available for positioning","timestamp":1650204737.62}]
[{"version":"1","alive":true,"tagId":"26651","success":true,"timestamp":1650204737.62,"data":{"tagData":{"gyro":{"x":-0.125,"y":0.1875,"z":0},"magnetic":{"x":5.1875,"y":22.0625,"z":-45.1875}},"anchorData":[],"coordinates":{"x":3044,"y":4959,"z":793},"acceleration":{"x":66,"y":2,"z":957},"orientation":{"yaw":5.949,"roll":0.07,"pitch":-0.005},"metrics":{"latency":76,"rates":{"update":6.199,"success":6.199}},"zones":[]}}]
[{"version":"1","alive":true,"tagId":"26660","success":true,"timestamp":1650204737.696,"data":{"tagData":{"gyro":{"x":-13.8125,"y":-10,"z":-30.875},"magnetic":{"x":3,"y":17.5625,"z":-47.1875}},"anchorData":[],"coordinates":{"x":1948,"y":7902,"z":1443},"acceleration":{"x":-37,"y":90,"z":931},"orientation":{"yaw":6.254,"roll":-0.045,"pitch":-0.07},"metrics":{"latency":87.1,"rates":{"update":6.133,"success":4.652}},"zones":[]}}]
[{"version":"1","alive":true,"tagId":"26651","success":true,"timestamp":1650204737.783,"data":{"tagData":{"gyro":{"x":0.1875,"y":-0.25,"z":-0.0625},"magnetic":{"x":4.75,"y":22.75,"z":-46.5}},"anchorData":[],"coordinates":{"x":3042,"y":4958,"z":797},"acceleration":{"x":68,"y":4,"z":957},"orientation":{"yaw":5.949,"roll":0.07,"pitch":-0.005},"metrics":{"latency":70,"rates":{"update":6.215,"success":6.215}},"zones":[]}}]
[{"version":"1","alive":true,"tagId":"26660","success":true,"timestamp":1650204737.863,"data":{"tagData":{"gyro":{"x":4,"y":-4.5625,"z":-37},"magnetic":{"x":1.5,"y":16.75,"z":-47.0625}},"anchorData":[],"coordinates":{"x":2073,"y":7911,"z":1444},"acceleration":{"x":-26,"y":47,"z":1066},"orientation":{"yaw":0.058,"roll":-0.049,"pitch":-0.083},"metrics":{"latency":80.5,"rates":{"update":6.143,"success":4.773}},"zones":[]}}]
[{"version":"1","alive":true,"tagId":"26651","success":true,"timestamp":1650204737.954,"data":{"tagData":{"gyro":{"x":0.125,"y":-0.0625,"z":0},"magnetic":{"x":4.75,"y":22.75,"z":-46.5}},"anchorData":[],"coordinates":{"x":3037,"y":4959,"z":784},"acceleration":{"x":68,"y":2,"z":957},"orientation":{"yaw":5.949,"roll":0.07,"pitch":-0.005},"metrics":{"latency":61.3,"rates":{"update":6.212,"success":6.212}},"zones":[]}}]
[{"version":"1","tagId":"26660","alive":true,"success":false,"errorCode":"ERROR 0x0A: Not enough anchors available for positioning","timestamp":1650204738.115}]
[{"version":"1","alive":true,"tagId":"26651","success":true,"timestamp":1650204738.115,"data":{"tagData":{"gyro":{"x":0.375,"y":-0.0625,"z":-0.125},"magnetic":{"x":4,"y":22.75,"z":-45.1875}},"anchorData":[],"coordinates":{"x":3034,"y":4957,"z":781},"acceleration":{"x":68,"y":2,"z":960},"orientation":{"yaw":5.949,"roll":0.07,"pitch":-0.005},"metrics":{"latency":70,"rates":{"update":6.177,"success":6.177}},"zones":[]}}]
[{"version":"1","alive":true,"tagId":"26660","success":true,"timestamp":1650204738.195,"data":{"tagData":{"gyro":{"x":-20.5625,"y":0.625,"z":-56.625},"magnetic":{"x":-3.6875,"y":16.0625,"z":-48.25}},"anchorData":[],"coordinates":{"x":2423,"y":7900,"z":1438},"acceleration":{"x":35,"y":-25,"z":997},"orientation":{"yaw":0.355,"roll":-0.063,"pitch":-0.052},"metrics":{"latency":81.8,"rates":{"update":6.088,"success":4.507}},"zones":[]}}]
